[
  {
    "fileName": "Eifelovka.jpg",
    "title": "Paríž",
    "description": "Výhľad na Paríž a eifelovka v pozadí.",
    "dateTime": "2024-11-20 18:30",
    "gps": {
      "latitude": 48.14816,
      "longitude": 17.10674
    },
    "path": "photos/Eifelovka.jpg"
  },
  {
    "fileName": "Monument.jpg",
    "title": "Mestská ulica",
    "description": "Živá ulica plná obchodov a ľudí.",
    "dateTime": "2024-11-21 14:45",
    "gps": {
      "latitude": 48.15194,
      "longitude": 17.10978
    },
    "path": "photos/Monument.jpg"
  },
  {
    "fileName": "More.jpg",
    "title": "Rieka za úsvitu",
    "description": "Pokojná rieka s rannou hmlou.",
    "dateTime": "2024-11-22 06:15",
    "gps": {
      "latitude": 48.14589,
      "longitude": 17.09774
    },
    "path": "photos/More.jpg"
  },
  {
    "fileName": "Most.jpg",
    "title": "Historická budova",
    "description": "Starodávna budova s krásnou architektúrou.",
    "dateTime": "2024-11-23 12:00",
    "gps": {
      "latitude": 48.14391,
      "longitude": 17.11061
    },
    "path": "photos/Most.jpg"
  },
  {
    "fileName": "Nocny pariz.jpg",
    "title": "Lesná cesta",
    "description": "Úzka cesta obklopená hustým lesom.",
    "dateTime": "2024-11-24 09:30",
    "gps": {
      "latitude": 48.15333,
      "longitude": 17.12222
    },
    "path": "photos/Nocny pariz.jpg"
  },
  {
    "fileName": "Park princov.jpg",
    "title": "Park plný zelene",
    "description": "Relax v tichom parku.",
    "dateTime": "2024-11-24 11:00",
    "gps": {
      "latitude": 48.15678,
      "longitude": 17.11945
    },
    "path": "photos/Park princov.jpg"
  },
  {
    "fileName": "Pole.jpg",
    "title": "Námestie",
    "description": "Rušné námestie v centre mesta.",
    "dateTime": "2024-11-25 16:00",
    "gps": {
      "latitude": 48.15456,
      "longitude": 17.11734
    },
    "path": "photos/Pole.jpg"
  },
  {
    "fileName": "Sacre Cour.jpg",
    "title": "Veža na kopci",
    "description": "Vyhliadková veža s výhľadom na krajinu.",
    "dateTime": "2024-11-26 13:30",
    "gps": {
      "latitude": 48.16123,
      "longitude": 17.11567
    },
    "path": "photos/Sacre Cour.jpg"
  },
  {
    "fileName": "Splav.jpg",
    "title": "Most cez rieku",
    "description": "Starý most s výhľadom na mesto.",
    "dateTime": "2024-11-26 17:00",
    "gps": {
      "latitude": 48.14785,
      "longitude": 17.09922
    },
    "path": "photos/Splav.jpg"
  },
  {
    "fileName": "Vodopad.jpg",
    "title": "Rozkvitnutá lúka",
    "description": "Farebná lúka plná kvetov.",
    "dateTime": "2024-11-27 10:00",
    "gps": {
      "latitude": 48.15234,
      "longitude": 17.12345
    },
    "path": "photos/Vodopad.jpg"
  }
]
